{"business_id":"1SWheh84yJXfytovILXOAQ","name":"Arizona Biltmore Golf Club","address":"2818 E Camino Acequia Drive","latitude":33.5221425,"longitude":-112.0184807,"stars":3.0,"is_open":0}
{"business_id":"QXAEGFB4oINsVuTFxEYKFQ","name":"Emerald Chinese Restaurant","address":"30 Eglinton Avenue W","latitude":43.6054989743,"longitude":-79.652288909,"stars":2.5,"is_open":1}
{"business_id":"gnKjwL_1w79qoiV3IC_xQQ","name":"Musashi Japanese Restaurant","address":"10110 Johnston Rd, Ste 15","latitude":35.092564,"longitude":-80.859132,"stars":4.0,"is_open":1}
{"business_id":"xvX2CttrVhyG2z1dFg_0xw","name":"Farmers Insurance - Paul Lorenz","address":"15655 W Roosevelt St, Ste 237","latitude":33.4556129678,"longitude":-112.3955963552,"stars":5.0,"is_open":1}
{"business_id":"HhyxOkGAM07SRYtlQ4wMFQ","name":"Queen City Plumbing","address":"4209 Stuart Andrew Blvd, Ste F","latitude":35.1900119,"longitude":-80.8872232,"stars":4.0,"is_open":1}
{"business_id":"68dUKd8_8liJ7in4aWOSEA","name":"The UPS Store","address":"Credit Valley Town Plaza, F2 - 6045 Creditview Rd","latitude":43.5994753,"longitude":-79.7115835,"stars":2.5,"is_open":1}
{"business_id":"5JucpCfHZltJh5r1JabjDg","name":"Edgeworxx Studio","address":"20 Douglas Woods Drive Southeast","latitude":50.9436456,"longitude":-114.0018283,"stars":3.5,"is_open":1}
{"business_id":"gbQN7vr_caG_A1ugSmGhWg","name":"Supercuts","address":"4545 E Tropicana Rd Ste 8, Tropicana","latitude":36.099872,"longitude":-115.074574,"stars":3.5,"is_open":1}
{"business_id":"Y6iyemLX_oylRpnr38vgMA","name":"Vita Bella Fine Day Spa","address":"5940 W Union Hills Dr","latitude":33.6548146,"longitude":-112.1885676,"stars":5.0,"is_open":0}
{"business_id":"4GBVPIYRvzGh4K4TkRQ_rw","name":"Options Salon & Spa","address":"21689 Lorain Rd","latitude":41.4408252653,"longitude":-81.8540965503,"stars":4.5,"is_open":1}
{"business_id":"fcXOEZdXYeZqnQ3lGlOXmg","name":"Nucleus Information Service","address":"1210 8th Street SW, Unit 220","latitude":51.041771,"longitude":-114.081109,"stars":2.0,"is_open":1}
{"business_id":"1Dfx3zM-rW4n-31KeC8sJg","name":"Taco Bell","address":"2450 E Indian School Rd","latitude":33.4951941,"longitude":-112.0285876,"stars":3.0,"is_open":1}
{"business_id":"5t3KVdMnFgAYmSl1wYLhmA","name":"The Kilted Buffalo Langtree","address":"119 Landings Dr, Ste 101","latitude":35.5274098057,"longitude":-80.8680032061,"stars":3.5,"is_open":1}
{"business_id":"fweCYi8FmbJXHCqLnwuk8w","name":"Marco's Pizza","address":"5981 Andrews Rd","latitude":41.70852,"longitude":-81.359556,"stars":4.0,"is_open":1}
{"business_id":"-K4gAv8_vjx8-2BxkVeRkA","name":"Baby Cakes","address":"4145 Erie St","latitude":41.6398599,"longitude":-81.4063963,"stars":3.0,"is_open":1}
{"business_id":"A98xW4qb7vOTguggHFs7Ng","name":"Hot Yoga Wellness","address":"1455 16th Avenue","latitude":43.861502576,"longitude":-79.3884991854,"stars":4.0,"is_open":1}
{"business_id":"giC3pVVFxCRR89rApqklyw","name":"Knot Salon","address":"4848 E Cactus Rd, Ste 100","latitude":33.600071,"longitude":-111.977371,"stars":5.0,"is_open":1}
{"business_id":"PZ-LZzSlhSe9utkQYU8pFg","name":"Carluccio's Tivoli Gardens","address":"1775 E Tropicana Ave, Ste 29","latitude":36.1000163,"longitude":-115.1285285,"stars":4.0,"is_open":0}
{"business_id":"nh_kQ16QAoXWwqZ05MPfBQ","name":"Myron Hensel Photography","address":"","latitude":36.1165487,"longitude":-115.0881146,"stars":5.0,"is_open":1}
{"business_id":"zSpQmEBvRe3IhTUlMSA6HQ","name":"Totum Life Science","address":"445 King Street W, Suite 101","latitude":43.6450415,"longitude":-79.3957986,"stars":4.0,"is_open":1}
{"business_id":"dFMxzHygTy6F873843dHAA","name":"Fremont Arcade","address":"450 Fremont St, Ste 179","latitude":36.169993,"longitude":-115.140685,"stars":4.5,"is_open":1}
{"business_id":"lxnuq9wJiwLOPJ4uZU2ljg","name":"Las Vegas Motorcars","address":"3650 N 5th, Ste 100","latitude":36.2258515,"longitude":-115.1328004,"stars":3.5,"is_open":1}
{"business_id":"KWywu2tTEPWmR9JnBc0WyQ","name":"Hunk Mansion","address":"6007 Dean Martin Dr","latitude":36.0801679,"longitude":-115.1827558,"stars":4.0,"is_open":1}
{"business_id":"1RHY4K3BD22FK7Cfftn8Mg","name":"Marathon Diner","address":"Center Core - Food Court, Fl 3, Pittsburgh International Airport","latitude":40.4961769456,"longitude":-80.2460112364,"stars":4.0,"is_open":1}
{"business_id":"BsMdebN4nZySpGTfXr-7yg","name":"Maurices","address":"7981 W Tropical Pkwy, Ste 120","latitude":36.2715455,"longitude":-115.2644839,"stars":5.0,"is_open":1}
{"business_id":"tstimHoMcYbkSC4eBA1wEg","name":"Maria's Mexican Restaurant & Bakery","address":"6055 E Lake Mead Blvd","latitude":36.1956146,"longitude":-115.0405289,"stars":4.5,"is_open":1}
{"business_id":"C9oCPomVP0mtKa8z99E3gg","name":"Bakery Gateau","address":"865 York Mills Road, Unit 1","latitude":43.7540931,"longitude":-79.3495479,"stars":4.5,"is_open":1}
{"business_id":"C9keC4mWuXdl2mYFHZXudQ","name":"Uncle Otis Clothing","address":"26 Bellair St","latitude":43.6707435,"longitude":-79.3913851,"stars":5.0,"is_open":1}
{"business_id":"iojTeSaoPuxm4WeCzDUA6w","name":"AW Collision","address":"3325 W Desert Inn Rd, Ste 101","latitude":36.129424,"longitude":-115.184443,"stars":4.5,"is_open":1}
{"business_id":"NDuUMJfrWk52RA-H-OtrpA","name":"Bolt Fresh Bar","address":"1170 Queen Street W","latitude":43.6428886,"longitude":-79.4254291,"stars":3.0,"is_open":1}
{"business_id":"LB6ZyCfUzeX9OLdunHhnOQ","name":"Ross Dress for Less","address":"8800 W Charleston Blvd","latitude":36.161805,"longitude":-115.2872775,"stars":3.5,"is_open":1}
{"business_id":"mNBp4KI2goFJKDB9VLGP9w","name":"JSE Automotive Services","address":"6875 N 21st Ave, Ste 118","latitude":33.5380237,"longitude":-112.1032008,"stars":5.0,"is_open":1}
{"business_id":"SP_YXIEwkFPPl_9anCYmpQ","name":"The Steady Cafe & Bar","address":"1051 Bloor Street W","latitude":43.6604937,"longitude":-79.432099,"stars":3.5,"is_open":0}
{"business_id":"irft4YkdNsww4DNf_Aftew","name":"So Cool Frozen Yogurt","address":"9020 B Albemarle Rd","latitude":35.21051,"longitude":-80.690262,"stars":4.5,"is_open":0}
{"business_id":"HVPcIcqiJkrpD36xZFGN6g","name":"Bank of America","address":"3150 N Rainbow Blvd","latitude":36.2166671,"longitude":-115.2420267,"stars":1.5,"is_open":1}
{"business_id":"BvYU3jvGd0TJ7IyZdfiN2Q","name":"Manzetti's Tavern","address":"6401 Morrison Blvd","latitude":35.156338,"longitude":-80.831878,"stars":3.5,"is_open":0}
{"business_id":"0_ohldeFwysbglrTLSGM4Q","name":"The Lounge Barber Shop","address":"15224 N 59th Ave","latitude":33.623871416,"longitude":-112.186448429,"stars":3.5,"is_open":0}
{"business_id":"M9DM1ktbW-TB7nXu3Z4RDw","name":"Sonoma Village","address":"1318 S Vineyard","latitude":33.391002655,"longitude":-111.8436203003,"stars":2.5,"is_open":1}
{"business_id":"n2kOsDur7tCLygSa87glJQ","name":"A Woman's Place","address":"2789 Sunridge Heights Pkwy, Ste 100","latitude":35.9911594,"longitude":-115.1084553,"stars":2.5,"is_open":0}
{"business_id":"hgPhZoB3zdiRdlT9FETskw","name":"OzBraz","address":"560 E Germann Rd, Ste 107","latitude":33.278251,"longitude":-111.77746,"stars":5.0,"is_open":1}
{"business_id":"-MsRvdPnuw6QuLn5Vxjruw","name":"Brian's Furniture","address":"30808 Center Ridge Rd","latitude":41.4227938,"longitude":-81.9622151,"stars":5.0,"is_open":1}
{"business_id":"FDI2PkyJBWEVFZ0ndHFg2g","name":"Wesley Friedman - FBC Mortgage","address":"6775 Edmond St, Ste 210","latitude":36.0664169,"longitude":-115.2125412,"stars":5.0,"is_open":1}
{"business_id":"Qwt9lOpplBAZ7JBrgAqI7g","name":"Pine Village Apartments","address":"3011 Arville St","latitude":36.138452,"longitude":-115.198019,"stars":2.0,"is_open":1}
{"business_id":"NBn4hgfGtNz91k3VsDZlmw","name":"Three Square","address":"4190 N Pecos Rd","latitude":36.2360535,"longitude":-115.0964542,"stars":5.0,"is_open":1}
{"business_id":"teknANRU8ZKnwdIHWYyd8Q","name":"Key To Healing Massage","address":"14202 N Scottsdale Rd","latitude":33.6168384583,"longitude":-111.9273103315,"stars":5.0,"is_open":0}
{"business_id":"e_EMySqP0uwlVZfd8mRaaQ","name":"Pearl Garden","address":"2825 32 Avenue NE","latitude":51.0811622,"longitude":-113.9934738,"stars":2.0,"is_open":0}
{"business_id":"-l45pZ9izx2mo5RzX2PwMw","name":"GiGi's Boutique Fine Consignment","address":"24 N Main St","latitude":35.2430984,"longitude":-81.0374682,"stars":3.0,"is_open":1}
{"business_id":"GWO87Y-IqL54_Ijx6hTYAQ","name":"Bruster's Real Ice Cream","address":"709 W Ray Rd","latitude":33.3203855,"longitude":-111.8046523,"stars":4.5,"is_open":0}
{"business_id":"Jff5hTK1ZMLKS06sOSNWdA","name":"Radisson Hotel & Conference Centre Calgary Airport","address":"6620 36 Street NE","latitude":51.1118915249,"longitude":-113.9804801532,"stars":3.5,"is_open":1}
{"business_id":"5ws3QWQXUhqTeLd7IZsDww","name":"Stephen L Walker, DDS, MS","address":"2220 W Southern Ave, Ste 102, Endodontic Specialists Ltd","latitude":33.393546,"longitude":-111.8788899,"stars":5.0,"is_open":1}
{"business_id":"mlHC2XcU9Bows6cnYEmRgg","name":"Mad Crush Wine Bar","address":"582 College Street","latitude":43.6554201,"longitude":-79.4133518,"stars":4.0,"is_open":0}
{"business_id":"Qnz3ywR7BosTr8qDk6G-Pw","name":"Mattress Firm Final Markdown","address":"13129 S Tryon St, Ste 120","latitude":35.1007253747,"longitude":-80.9920791686,"stars":5.0,"is_open":1}
{"business_id":"viivlh_KJkiDVxhIdZnV8Q","name":"Club Red","address":"1306 W University Dr","latitude":33.4221642,"longitude":-111.859035,"stars":2.5,"is_open":1}
{"business_id":"q2KtxnPa6rPSpAlMbg9l8g","name":"Nothing Bundt Cakes","address":"17025 N Scottsdale Rd, Ste 110","latitude":33.6403078149,"longitude":-111.9245281399,"stars":4.0,"is_open":1}
{"business_id":"c-BELKj0SvNhBesQMf-bKw","name":"Circle K","address":"3101 W Northern Ave","latitude":33.5528496,"longitude":-112.1259755,"stars":2.5,"is_open":1}
{"business_id":"qWWBVE5T_zMEF7UJ4iTfNw","name":"DJ Yonish, Inc.","address":"3001 S Park Rd","latitude":40.3268447,"longitude":-80.0421841,"stars":2.5,"is_open":1}
{"business_id":"YNvZdMLXa4q8e9tiE4ge4A","name":"Louis Stokes Cleveland VA Medical Center","address":"10701 E Blvd","latitude":41.5135543914,"longitude":-81.6137516499,"stars":3.5,"is_open":1}
{"business_id":"cQ8FKduGfVskvi11NZXsAg","name":"Tomkins Park","address":"880 17 Avenue SW","latitude":51.0379943848,"longitude":-114.0813674927,"stars":3.5,"is_open":1}
{"business_id":"_J_x_RaYTqAqAuCwgRhnRQ","name":"Kabob House","address":"6432 E Independence Blvd","latitude":35.172028,"longitude":-80.746801,"stars":3.0,"is_open":0}
{"business_id":"0KlYc--jcw4EOYdPS8CDQg","name":"Cookie Cutters Haircuts for Kids","address":"14130 Rivergate Pkwy, Ste 200","latitude":35.1024898,"longitude":-80.9857691,"stars":4.0,"is_open":1}
{"business_id":"KSoAqqpLSUHMzpMDf46DMg","name":"Jared Galleria of Jewelry","address":"25851 Brookpark Rd","latitude":41.4183507,"longitude":-81.911148,"stars":1.5,"is_open":1}
{"business_id":"6l00a9Gkxkcp_y-GPjYBiw","name":"J's Fish & Chips","address":"17205 Leslie Street, Unit 2","latitude":44.0587654,"longitude":-79.4291147,"stars":4.5,"is_open":1}
{"business_id":"xu29IdQ4J9o5bffgoONwSA","name":"The Estancia Club","address":"27998 N 99th Pl","latitude":33.737965,"longitude":-111.8651998,"stars":4.0,"is_open":1}
{"business_id":"jtzU8hk78718cNWM_dMcDg","name":"Gap","address":"Northlake Mall, 6801 Northlake Mall Drive","latitude":35.3521284,"longitude":-80.8512352,"stars":3.5,"is_open":0}
{"business_id":"a_TfmuLIHsRDyg7aVJQCBQ","name":"Bank of America","address":"4910 S Fort Apache Rd","latitude":36.0995915313,"longitude":-115.2966786677,"stars":2.0,"is_open":1}
{"business_id":"qac28VmbQ7OrTMk-RCl7Yg","name":"Salon Glow","address":"4830 N Litchfield Rd, Ste 105","latitude":33.5063725,"longitude":-112.3587447,"stars":4.0,"is_open":0}
{"business_id":"dQj5DLZjeDK3KFysh1SYOQ","name":"Apteka","address":"4606 Penn Ave","latitude":40.4656937,"longitude":-79.9493238,"stars":4.5,"is_open":1}
{"business_id":"R3rss9fkfJxiOK6DueON3w","name":"La Fortuna","address":"3339 Las Vegas Blvd S","latitude":36.1231067,"longitude":-115.170253,"stars":4.0,"is_open":1}
{"business_id":"Y0dRlYjRNWckjvTGd55hzg","name":"M Catering by Michael's","address":"20645 N 28th St","latitude":33.6745703,"longitude":-112.0218342,"stars":5.0,"is_open":1}
{"business_id":"kJbteCeQTiEB8Xdn9dA7rw","name":"Transformers Landscaping","address":"6798 Cherry Grove Ave","latitude":36.1919831,"longitude":-115.0240553,"stars":4.0,"is_open":1}
{"business_id":"5sFVttifV5ID8Gs0-iiAsA","name":"Hair by Sharyn","address":"8751 W Charleston Blvd","latitude":36.1575464,"longitude":-115.2860645,"stars":5.0,"is_open":1}
{"business_id":"9UTpmQ4OhX5jNFUIu7dPPQ","name":"Buk Chang Dong Soon Tofu","address":"3085 Hurontario Street","latitude":43.582262,"longitude":-79.618858,"stars":4.0,"is_open":1}
{"business_id":"HYunM2pknhIh8lbiMa7THw","name":"Dunn-Edwards Paints","address":"233 E Camelback Rd","latitude":33.5090108,"longitude":-112.0696671,"stars":3.0,"is_open":1}
{"business_id":"v-scZMU6jhnmV955RSzGJw","name":"No. 1 Sushi Sushi","address":"436 Market St","latitude":40.441062,"longitude":-80.002126,"stars":4.5,"is_open":1}
{"business_id":"gS-IoDQSggdxPn2Sf1yfGQ","name":"Desert Shores Dentistry","address":"16515 S 40th St","latitude":33.2973184,"longitude":-111.9964502,"stars":5.0,"is_open":1}
{"business_id":"kANF0dbeoW34s2vwh6Umfw","name":"Dairy Queen","address":"6125 Spring Mountain Rd","latitude":36.1250311,"longitude":-115.2256202,"stars":2.0,"is_open":0}
{"business_id":"D6ffAaTr_m5lsKxHNp9fwg","name":"Goveias Salon & Spa","address":"6949 E 5th Ave","latitude":33.4842100799,"longitude":-111.9342308109,"stars":5.0,"is_open":1}
{"business_id":"KFbUQ-RR2UOV62Ep7WnXHw","name":"Westwood Bar & Grill","address":"825 Commonwealth Ave","latitude":40.376674,"longitude":-79.88248,"stars":3.0,"is_open":1}
{"business_id":"44YFU284Z3KDEy25QyVoUw","name":"Nee House Chinese Restaurant","address":"13843 N Tatum Blvd, Ste 15","latitude":33.6130201898,"longitude":-111.9770356779,"stars":3.5,"is_open":1}
{"business_id":"iXkqd9uNods7YnxrnBq_RA","name":"Spirit Apothecary","address":"664 Broadway Ave","latitude":41.3919418,"longitude":-81.5363193,"stars":4.5,"is_open":1}
{"business_id":"PkDghu4aan2_wxrhXjTEgg","name":"MiraKuru","address":"529-17th Avenue SW","latitude":51.0377777046,"longitude":-114.0733513906,"stars":3.5,"is_open":0}
{"business_id":"eXgDqKD7-sojyzh6q7PJ4g","name":"The Sweet Gallery","address":"350 Bering Avenue","latitude":43.637329,"longitude":-79.5311665,"stars":4.0,"is_open":1}
{"business_id":"i_oghUPqLzzJtxC6Zm-D2A","name":"Braseiro","address":"8261 Saint-Laurent Boulevard","latitude":45.5397329,"longitude":-73.633639,"stars":4.0,"is_open":1}
{"business_id":"RFbMVekR8lU9tPJ8sWrwHg","name":"Tavolino","address":"619 Mount Pleasant Road","latitude":43.7042291,"longitude":-79.3882299,"stars":4.0,"is_open":1}
{"business_id":"735UkyT4px_oeW3iyotGmA","name":"Parc-nature de l'Île-de-la-Visitation","address":"2425 Boulevard Gouin E","latitude":45.5838977316,"longitude":-73.653777726,"stars":4.5,"is_open":1}
{"business_id":"HHH_mrl-x694asUCs3SHeQ","name":"Inspire! Dental","address":"4434 E Brown Rd, Ste 104","latitude":33.437778,"longitude":-111.734964,"stars":5.0,"is_open":1}
{"business_id":"1gkJBdrkfdO7rEMml9e2KQ","name":"Llantera Del Norte","address":"4380 N Lamb Blvd","latitude":36.2395570019,"longitude":-115.0796038143,"stars":4.0,"is_open":0}
{"business_id":"nkoie_y3fbaQGjZqFGqsrg","name":"Complete Auto Glass","address":"650 S Nine Mound Rd","latitude":42.986419914,"longitude":-89.5479280483,"stars":5.0,"is_open":1}
{"business_id":"HBQG_DT8pfbkv8jiv3P6Gw","name":"Winners","address":"3105 Highway 7","latitude":43.847996581,"longitude":-79.3537330357,"stars":2.5,"is_open":1}
{"business_id":"DLaE25PS7bO9ar5rz-zRow","name":"Nice One Nails","address":"8 - 1525 Bristol Road","latitude":43.5861958135,"longitude":-79.6995425597,"stars":2.5,"is_open":1}
{"business_id":"iA6IwYzo6qDmY7dZfXdzyg","name":"Wyatt Brad, DMD","address":"5700 W Olive Ave, Ste 104","latitude":33.567806315,"longitude":-112.182662487,"stars":5.0,"is_open":0}
{"business_id":"CJ4hyISN5qHyqMGHcydZFg","name":"enVoqueMD","address":"10155 E Via Linda, Ste H136","latitude":33.5743637622,"longitude":-111.8621073184,"stars":3.5,"is_open":1}
{"business_id":"SWX0K1dpy4fcRq-ktZxmCg","name":"Bistro des Moulins","address":"10897 Rue du Pont","latitude":45.574857,"longitude":-73.66113,"stars":3.5,"is_open":0}
{"business_id":"gas3YSrKkEcBliUHhnOLTg","name":"Tiffany & Co - Forum Shops at Caesar's Palace","address":"3500 Las Vegas Blvd","latitude":36.1181566288,"longitude":-115.1764297378,"stars":3.5,"is_open":1}
{"business_id":"3d6ys6yvpF3svKa4HtUnoA","name":"Kirsty Blattner","address":"","latitude":43.0541875099,"longitude":-89.3902180422,"stars":5.0,"is_open":1}
{"business_id":"BUdtUH9SkcitAf4JOOsa6A","name":"North Mountain Medical & Rehabilitation Center","address":"9155 N 3rd St","latitude":33.5694844,"longitude":-112.0688287,"stars":2.0,"is_open":1}
{"business_id":"NPHZkn1e-tSJAbo8Zm9rYw","name":"Burrito Bandidos","address":"1614 Queen Street E","latitude":43.6661812,"longitude":-79.3164682,"stars":3.5,"is_open":1}
{"business_id":"smkZUv_IeYYj_BA6-Po7oQ","name":"Fabulous Cakes and Confections Inc.","address":"4300 Steeles Avenue W, Unit 9","latitude":43.7675451093,"longitude":-79.5617757296,"stars":3.5,"is_open":1}
{"business_id":"Cat1JuOOdv89E8Zck23smQ","name":"Laura Saucedo 702","address":"6345 S Pecos Rd, Ste 105","latitude":36.0749832,"longitude":-115.1013651,"stars":5.0,"is_open":1}
{"business_id":"1lp-Y6oaoI4BOPU3hyvIVQ","name":"Renters Warehouse","address":"376 E Warm Springs Rd, Ste 240","latitude":36.057517,"longitude":-115.1552512,"stars":3.5,"is_open":1}
{"business_id":"f2ZWZPENViL92BrFsIgR6w","name":"Amazing Cuts","address":"6955 N Durango Dr, Ste 1116","latitude":36.2873119,"longitude":-115.2895402,"stars":4.5,"is_open":1}
{"business_id":"YK5eFV8uS1bCmp8GeiQ-Qg","name":"All Star Donuts & Kolaches","address":"3650 E Flamingo Rd","latitude":36.115813,"longitude":-115.095457,"stars":4.0,"is_open":0}
{"business_id":"cr5pOUYVlwIDflN_SZuGog","name":"Healthcare Partners Sunset","address":"9280 W Sunset Rd","latitude":36.071819,"longitude":-115.294899,"stars":3.0,"is_open":1}
{"business_id":"sV6kKpzneWwQ8cY8gQ8bgA","name":"Charlotte Mecklenburg Library - Beatties Ford Road Regional","address":"2412 Beatties Ford Rd","latitude":35.267703,"longitude":-80.8534335,"stars":4.0,"is_open":1}
{"business_id":"QHr_fc_TLnGfUEuDEa2jDg","name":"PA Wine & Spirits Store","address":"125 Towne Centre Dr, Ste 500","latitude":40.6320526,"longitude":-80.0564758,"stars":3.0,"is_open":1}
{"business_id":"PL9xKgFL9FB8wDQ9AKrm4g","name":"Brilliance New York","address":"3355 S Las Vegas Blvd, Ste D, The Venetian Hotel","latitude":36.1212294589,"longitude":-115.1691329904,"stars":3.5,"is_open":1}
{"business_id":"OOnIQMkjg1VpAcPRFLnM0g","name":"Stein Mart","address":"5960 W Bell Rd","latitude":33.6403899876,"longitude":-112.1879866719,"stars":4.0,"is_open":1}
{"business_id":"jtlAfuINMCYVFpjwMgy2jw","name":"Medium Rare","address":"5241 Dundas Street W","latitude":43.6388793,"longitude":-79.5376319,"stars":4.0,"is_open":0}
{"business_id":"pLMfv9jqRElSyJ9pcuFgdA","name":"U.S. Bank","address":"4550 E Sunset Rd","latitude":36.071264,"longitude":-115.0746319,"stars":4.0,"is_open":1}
{"business_id":"0-pC3IoaEK5gNVi2Sz6v7w","name":"Nail Nail","address":"360 Hwy 7  E","latitude":43.8417684,"longitude":-79.3968244,"stars":4.0,"is_open":1}
{"business_id":"KjicU7uxRt2KDEnO5cgxDQ","name":"Arizona Florist","address":"2050 S 16th St, Ste 105","latitude":33.428259,"longitude":-112.048848,"stars":3.0,"is_open":1}
{"business_id":"X8mtoSxY8whtmbDlj0D3Aw","name":"Imperial Asian Buffet","address":"4343 N Rancho Dr","latitude":36.238596,"longitude":-115.2333307,"stars":2.0,"is_open":1}
{"business_id":"JAiZVIzhwKgPjncWUedCNQ","name":"Ogden Funeral Homes","address":"4164 Sheppard Avenue E","latitude":43.7853769,"longitude":-79.2806654,"stars":3.5,"is_open":1}
{"business_id":"7aLkFEBnL1LJmQdcuaovuQ","name":"Ohio Beer Garden","address":"402 Great Northern Blvd","latitude":41.4165875685,"longitude":-81.9043700652,"stars":4.0,"is_open":1}
{"business_id":"80hHlCEz_1-vgAhmLvs3lQ","name":"Hair & Nails by Anastasiya","address":"15454 N Frank Lloyd Wright Blvd, Ste A-2 Rm.18","latitude":33.6269447,"longitude":-111.8880353,"stars":5.0,"is_open":1}
{"business_id":"qJeSjOMgWB3er3UXG33ZVw","name":"Carl's Jr","address":"309 50 Avenue SW","latitude":51.0084601753,"longitude":-114.0687542984,"stars":3.5,"is_open":1}
{"business_id":"gyFYZV4b_9TxG1ulQNi0Ig","name":"Paramount Fine Foods","address":"165 East Liberty Street","latitude":43.6384423,"longitude":-79.4172366,"stars":2.0,"is_open":1}
{"business_id":"WyNlF7TMW7lNIta0jpWabw","name":"The Spoke Easy","address":"2923 S Tryon St, Ste 250","latitude":35.201759,"longitude":-80.871844,"stars":4.5,"is_open":0}
{"business_id":"Yd7H9VvU4Euyguxwyrlfkw","name":"Stencil - A DIY Craft Studio","address":"14435 N 73rd St","latitude":33.6148125,"longitude":-111.9238511,"stars":5.0,"is_open":1}
{"business_id":"OezwOIJ0_62Mj8MLdkGRAw","name":"Aroma Espresso Bar","address":"105 The Pond Road","latitude":43.7698543376,"longitude":-79.5019328828,"stars":3.5,"is_open":1}
{"business_id":"0lFAD4CuWcQVl9u3-lRaCQ","name":"Cruisers Bar and Grill","address":"6625 Dean Memorial Pkwy","latitude":41.261133,"longitude":-81.503467,"stars":3.5,"is_open":1}
{"business_id":"aql8K6zVoJDGRJ3P-IgtpQ","name":"Ume Fashion Sushi","address":"1732 Kingston Road","latitude":43.6927912,"longitude":-79.2626299,"stars":4.5,"is_open":1}
{"business_id":"0PVrf9UoZBR5lEjee893Wg","name":"Funny Stop Comedy Club","address":"1767 State Rd","latitude":41.1307822,"longitude":-81.5079804,"stars":3.0,"is_open":1}
{"business_id":"VaNjd3jir0MKntCFya70uA","name":"Graphic Web Design","address":"6747 Spencer, Ste 1","latitude":36.06735,"longitude":-115.1281116,"stars":5.0,"is_open":1}
{"business_id":"wUsjANxpknTpsaTjYoo9iA","name":"Venetian Nail Spa","address":"19312 Detroit Rd","latitude":41.4817445,"longitude":-81.8361651,"stars":2.5,"is_open":1}
{"business_id":"Kxbn0XLcCgQqmkdIkhuOeQ","name":"Not Your Mother","address":"1346 Queen Street, Unit 2","latitude":43.6417075708,"longitude":-79.432192035,"stars":4.0,"is_open":1}
{"business_id":"MvKj4_etnStgYRnXOwFSPw","name":"Glendale Care Center","address":"4704 W Diana Ave","latitude":33.5638269,"longitude":-112.1612316,"stars":1.0,"is_open":1}
{"business_id":"iedsG4rv8SYY22kGUVDjaw","name":"Southdown Chiropractic & Wellness","address":"1494 Southdown Road","latitude":43.5204101,"longitude":-79.6433145,"stars":4.0,"is_open":1}
{"business_id":"sKhDrZFCJqfRNylkHrIDsQ","name":"Starbucks","address":"1990 Village Center Circle, Suite 1","latitude":36.191852,"longitude":-115.304983,"stars":4.0,"is_open":1}
{"business_id":"N2G7ySm6R-jYrHvDAV2Ndw","name":"Holiday Inn Express & Suites Pittsburgh Sw - Southpointe","address":"4000 Horizon Vue Dr","latitude":40.2745375,"longitude":-80.1693759,"stars":5.0,"is_open":1}
{"business_id":"DwsESfIDIsgQ4DTx9VNOsw","name":"Tim the Tool Man","address":"","latitude":33.5106684,"longitude":-112.029752,"stars":5.0,"is_open":1}
{"business_id":"faixHjogPjNUo07T0RBRFw","name":"Protection 1 Security Solutions","address":"5030 S Decatur Blvd","latitude":36.0985674,"longitude":-115.2068401,"stars":2.0,"is_open":1}
{"business_id":"3aUBEB206LBNLUY6rCW2sw","name":"Acupuncture with Ashlee","address":"4450 S Rural Rd, Bldg A, Ste 202","latitude":33.3832079,"longitude":-111.927103,"stars":5.0,"is_open":1}
{"business_id":"ysfeDcLAYk_MVzfBmyiSTg","name":"Vals Getaway DES Cafeteria","address":"1789 W Jefferson","latitude":33.4468055,"longitude":-112.0971288,"stars":3.0,"is_open":1}
{"business_id":"fn6ySvSF79V3s-f6xnPVRw","name":"Torrid","address":"3528 S Maryland Pkwy, Ste 124","latitude":36.124414,"longitude":-115.135589,"stars":3.5,"is_open":1}
{"business_id":"bJP4l_BGq2CudEu0m-wNjg","name":"Artisan Fine Dining Room","address":"Artisan Hotel, 1501 W Sahara Ave","latitude":36.1436722,"longitude":-115.1697916,"stars":2.0,"is_open":0}
{"business_id":"MbGUIsOkVeKrwH3_RcGqng","name":"Air Tech Plus","address":"4829 N 92nd Ln","latitude":33.5081375,"longitude":-112.2593121,"stars":1.0,"is_open":1}
{"business_id":"Q1GhjqlLENaT383k9Ex5wg","name":"Daily Donut","address":"9133 W Thunderbird Rd, Ste 107","latitude":33.6092155475,"longitude":-112.2556132078,"stars":4.5,"is_open":1}
{"business_id":"xYGb7EAEIbrLamlpaUPmJA","name":"Berning's Fine Jewelry","address":"1721 E Warner Rd, Ste C5","latitude":33.3333896,"longitude":-111.9127038,"stars":2.5,"is_open":0}
{"business_id":"1HRSElW1HgBiTtSNrhjMeA","name":"Fine Asian Bowl","address":"1634 Bayview Ave","latitude":43.7066913,"longitude":-79.3758028,"stars":2.0,"is_open":0}
{"business_id":"r8764MtYyt8JhxMvrfM_xQ","name":"Vintage 95","address":"95 W Boston","latitude":33.3020931,"longitude":-111.8426128,"stars":4.0,"is_open":0}
{"business_id":"L0aSDVHNXCl6sY4cfZQ-5Q","name":"Mai Thai II","address":"7712 Sossamon Ln NW, Unit 140","latitude":35.364974,"longitude":-80.708763,"stars":4.0,"is_open":1}
{"business_id":"qhkfFrB7IA9AlT-cSl2NSQ","name":"SimonMed Imaging - Mesa Drive","address":"456 N Mesa Dr","latitude":33.4237096,"longitude":-111.8233689,"stars":1.5,"is_open":1}
{"business_id":"mruax-1iDdb8GlAKwLy8JQ","name":"Hotel Indigo Toronto Airport","address":"135 Carlingview Drive","latitude":43.6789005,"longitude":-79.5914878,"stars":3.0,"is_open":0}
{"business_id":"la2-RM1eWKmb0kFYwZVr_Q","name":"Pitlane Auto Corp","address":"57 Toro Road","latitude":43.7605457,"longitude":-79.4846618,"stars":5.0,"is_open":1}
{"business_id":"LcIHB4sWUKTnpBtvVx_W5A","name":"Scottsdale Cab Company","address":"","latitude":33.615544,"longitude":-111.954623,"stars":4.0,"is_open":1}
{"business_id":"voZnDQs6Hs3YpNcS-9TALg","name":"New Mexican Grill","address":"3140 S Gilbert Rd, Ste 3","latitude":33.261325,"longitude":-111.790815,"stars":4.0,"is_open":0}
{"business_id":"t-6tdxRaz7s9a0sf94Tguw","name":"Impressionz","address":"6008 Broad St","latitude":40.4623454064,"longitude":-79.9241651595,"stars":4.5,"is_open":0}
{"business_id":"QaXU3XeFaWwJ1_E1A3_3uw","name":"Slate Interiors","address":"1401 Central Ave, Ste 200","latitude":35.220895,"longitude":-80.814996,"stars":3.0,"is_open":1}
{"business_id":"WlArCYe6xCzOe5u2Lt1how","name":"Domino's Pizza","address":"3843 Bloor Street W","latitude":43.6406266,"longitude":-79.5389165,"stars":3.0,"is_open":1}
{"business_id":"S-ib-0USQYqj8WsOjiuVtw","name":"Kidz Kidz Kidz Preschool","address":"1483 W Horizon Ridge Pkwy","latitude":36.0197282,"longitude":-115.0503987,"stars":2.5,"is_open":1}
{"business_id":"TOJuL1S42GOdkv5Y2am1mw","name":"Hanratty Law Group","address":"1815 Village Center Cir, Ste 140","latitude":36.1921702,"longitude":-115.301492,"stars":3.5,"is_open":1}
{"business_id":"RcQCseZjTj9_FFRrixkLdw","name":"A&T Remodeling Stucco","address":"","latitude":33.3990327,"longitude":-111.7972384,"stars":4.0,"is_open":1}
{"business_id":"rHKC8TjQP_u6k3uwEkdCsQ","name":"Forrest & Forrest Family Dentistry","address":"14798 Lawyers Rd","latitude":35.140693,"longitude":-80.621909,"stars":4.0,"is_open":1}
{"business_id":"7_nq0GqNvc5CT0A3tVCpcg","name":"Olson Eye Care","address":"1963 Lincoln Way","latitude":40.3403409,"longitude":-79.8112483,"stars":2.5,"is_open":1}
{"business_id":"xXdRivb3LjGCl8HiuUa22g","name":"QBE Insurance","address":"","latitude":43.0730517,"longitude":-89.4012302,"stars":1.0,"is_open":1}
{"business_id":"jScBTQtdAt-8RshaiBEHgw","name":"Served","address":"1770 W Horizon Ridge, Ste 100","latitude":36.0107451,"longitude":-115.0648029,"stars":4.5,"is_open":1}
{"business_id":"U3kygJOTlTQFlfaZS7sQjA","name":"JJ's Red Hots - Dilworth","address":"1514 East Blvd","latitude":35.1997979674,"longitude":-80.842294693,"stars":4.0,"is_open":1}
{"business_id":"Ik-vXB7HCwnC44KDf_nwdw","name":"Carl's Place - 900 Series Motorsports","address":"3043 Meade Ave, Ste A","latitude":36.1358646,"longitude":-115.1823852,"stars":4.5,"is_open":1}
{"business_id":"c35qzLN6ItDpVIoj2uQW4Q","name":"Ravi Soups","address":"322 Adelaide Street W","latitude":43.6475853,"longitude":-79.3920316,"stars":4.5,"is_open":1}
{"business_id":"wOS6masGoY5JszRAF3goLQ","name":"Habitat For Humanity Restore","address":"4207 Monona Dr","latitude":43.0750236,"longitude":-89.3266979,"stars":3.5,"is_open":1}
{"business_id":"yZUBzm3J8lxJwKNMtWU0Mw","name":"Multi-Specialty Physicians","address":"15021 W Bell Rd, Ste 125","latitude":33.63724,"longitude":-112.383643,"stars":2.5,"is_open":1}
{"business_id":"nsNONDHbV7Vudqh21uicqw","name":"Salt Cellar","address":"550 N Hayden Rd","latitude":33.454286,"longitude":-111.909405,"stars":3.5,"is_open":1}
{"business_id":"jwHtNvHBPafiAwM92jM8yA","name":"Little Caesars Pizza","address":"2277 10th Line, Suite 3","latitude":43.9994281,"longitude":-79.2368879,"stars":4.0,"is_open":1}
{"business_id":"DTyxXf17YCcfjoa08LyS4g","name":"MK Remodeling & Design","address":"4064 E Presidio St, Ste 101","latitude":33.4732582,"longitude":-111.7425085,"stars":5.0,"is_open":1}
{"business_id":"kGal388xLnmCwI4mw2TG8Q","name":"J-C Foodland","address":"270 Wellington Street W","latitude":43.644895,"longitude":-79.391717,"stars":3.0,"is_open":1}
{"business_id":"SvUvVEr9cTjS-PJQ9MuckQ","name":"Caffeine","address":"1448 Lawrence Avenue E","latitude":43.742555,"longitude":-79.314252,"stars":4.5,"is_open":1}
{"business_id":"YAbKZJxEtdHCWrJYj2uR3w","name":"MovieWork Now","address":"11811 N Tatum Blvd, Ste 3031","latitude":33.594688,"longitude":-111.9793567,"stars":2.5,"is_open":1}
{"business_id":"BKtkkcAf_sa6Kk99VIDnog","name":"Dulce Alterations","address":"4502 Wilkinson Blvd","latitude":35.2555466,"longitude":-81.1014888,"stars":2.5,"is_open":1}
{"business_id":"RZ48zp2J2SWUy-lZ4PHZrw","name":"Sanagan's Meat Locker","address":"1513 Gerrard Street E","latitude":43.6727211,"longitude":-79.3195719,"stars":5.0,"is_open":1}
{"business_id":"cz5kBEZMHKyJ_nZXn-IRIA","name":"Hall Brent R DDS","address":"8877 W Union Hills Dr, Ste 650","latitude":33.6521441,"longitude":-112.249765,"stars":4.0,"is_open":1}
{"business_id":"M_jPgrNm1BrIXWokvvxpOQ","name":"Bella Vet","address":"","latitude":33.468848,"longitude":-111.910516,"stars":5.0,"is_open":1}
{"business_id":"IgQ8lSds3AgLFQsYsshUHQ","name":"Gourmet Gringos","address":"1921 Queen Street E","latitude":43.6690438622,"longitude":-79.3044535463,"stars":3.5,"is_open":0}
{"business_id":"v7ZFEEqJBg_r8NCwHRP_2A","name":"Bistro Divino","address":"241 W Charleston Blvd","latitude":36.1582642,"longitude":-115.1579672,"stars":4.5,"is_open":0}
{"business_id":"6fPQJq4f_yiq1NHn0fd11Q","name":"La Creperie","address":"3655 Las Vegas Blvd S","latitude":36.1125266402,"longitude":-115.1713514328,"stars":3.5,"is_open":1}
{"business_id":"sAX1q1kLvOnXKURq_MP_Wg","name":"Park Road Books","address":"4139 Park Rd","latitude":35.1752678,"longitude":-80.8492694,"stars":4.0,"is_open":1}
{"business_id":"k-dDZvTeLysoJvjHI-qr9g","name":"Feast Buffet","address":"2411 W Sahara Ave","latitude":36.1421161808,"longitude":-115.1742515629,"stars":3.0,"is_open":1}
{"business_id":"5WMIvoMx3l1vn1uJ3HZB6Q","name":"Subway","address":"411 7th Ave","latitude":40.4428627,"longitude":-79.996412,"stars":3.0,"is_open":1}
{"business_id":"T_tnCsUQmqTMEI3XxJAyOA","name":"Howlers Craft Burgers & Beer","address":"3908 E Franklin Blvd, Ste F130","latitude":35.2574493,"longitude":-81.111445,"stars":3.5,"is_open":0}
{"business_id":"2JcGcLMzP_TXTRvhCotYZA","name":"Digital One","address":"6960 Spinach Dr","latitude":41.681483,"longitude":-81.344831,"stars":5.0,"is_open":1}
{"business_id":"spi9UEWyNrq2O4y5DD84LA","name":"Restaurant Nhu Y","address":"134 Rue Jean-Talon O","latitude":45.5331108,"longitude":-73.6195176,"stars":4.0,"is_open":0}
{"business_id":"Rs8Wi4OEjeOX7LVlzsXDOA","name":"Sushi Mocorito","address":"3415 West Glendale Ave, Bldg 25A","latitude":33.5371638,"longitude":-112.1329258,"stars":3.0,"is_open":1}
{"business_id":"zgjeunqPvj_423xkGtiFjw","name":"MinuteClinic","address":"1610 East Camelback Rd","latitude":33.509595,"longitude":-112.047018,"stars":2.5,"is_open":1}
{"business_id":"vzo659ogST1F_Vj9aTXLUg","name":"National Equity Consultants","address":"4636 E Elwood St","latitude":33.4133998,"longitude":-111.9817964,"stars":1.0,"is_open":0}
{"business_id":"_FrJLtITs2p8SeOJdSpsQQ","name":"Spectacle","address":"3342 Yonge Street","latitude":43.7317679,"longitude":-79.4039785,"stars":3.5,"is_open":1}
{"business_id":"SJBzyJDCR_f6dx5tpYAABA","name":"Kibo Sushi House","address":"2945 Lake Shore Boulevard","latitude":43.6005226,"longitude":-79.5055159,"stars":4.0,"is_open":1}
{"business_id":"b9R3msDsU2cC6WKBm68tzQ","name":"Eyebrows R US","address":"4880 E. Bonanza Rd., Suite 1","latitude":36.1743224,"longitude":-115.0664772,"stars":3.5,"is_open":1}
{"business_id":"MhnihE0alud0ereVInSt8Q","name":"Yummy Yummy Chinese Restaurant","address":"2765 N Scottsdale Rd, Ste 105","latitude":33.478754,"longitude":-111.925484,"stars":3.0,"is_open":1}
{"business_id":"i6hWP3si97eKQl_JyK8L3w","name":"Hilton Toronto","address":"145 Richmond Street W","latitude":43.6496117,"longitude":-79.3854472,"stars":3.5,"is_open":1}
{"business_id":"wht5FaGi7r86WKW7-VX2lQ","name":"Today's Market","address":"612 Allegheny River Blvd","latitude":40.5194397,"longitude":-79.8423011,"stars":4.5,"is_open":1}
{"business_id":"111d13yLgIdqvpZekgVnbQ","name":"Pallucci","address":"523 Mount Pleasant Road","latitude":43.7021058,"longitude":-79.3874711,"stars":3.0,"is_open":0}
{"business_id":"EXr-oKAbgON2bYNinu6cyQ","name":"D&S Automotive Collision & Restyling","address":"7588 Tyler Blvd","latitude":41.6676012,"longitude":-81.3708126,"stars":5.0,"is_open":1}
{"business_id":"zTIna6imZC9Ij5JWgHL9jw","name":"Hair Design By Mary Ann","address":"5710 Simmons St, Ste 101, Luxe Salon Studios","latitude":36.264034,"longitude":-115.179273,"stars":4.0,"is_open":1}
{"business_id":"kvM34AeKBJoQn3FJfGXWhw","name":"Marlene's Baker Supply","address":"29225 Euclid Ave","latitude":41.6057871,"longitude":-81.4753991,"stars":4.5,"is_open":1}
{"business_id":"cBQDYO0dIpG6--I3DMiWoQ","name":"Secrets de Femme","address":"5411 rue Beaubien E","latitude":45.575935,"longitude":-73.568558,"stars":1.0,"is_open":1}
{"business_id":"1Oa6PpE1MYDT8OLRm8SBig","name":"Vic's Auto Repair","address":"2704 S Highland Ave","latitude":36.146651,"longitude":-115.166948,"stars":4.5,"is_open":1}
{"business_id":"6aOnrzf15RMqFNOQ-_ElIA","name":"COCO Crafted Organic Chocolate","address":"365 Jane Street","latitude":43.6575995,"longitude":-79.4876834,"stars":5.0,"is_open":1}
{"business_id":"FDEm-c3NAXnTVtl-hgzAhA","name":"Heart Attack Grill","address":"6185 W Chandler Blvd","latitude":33.3047634,"longitude":-111.948079,"stars":3.0,"is_open":0}
{"business_id":"4n81G-pmC3rfhmaPsbwYKg","name":"Vince Neil's Tatuado | Eat, Drink, Party","address":"360 E Tropicana Ave","latitude":36.1020497898,"longitude":-115.1562883,"stars":4.5,"is_open":1}
{"business_id":"o5TylXKBuAK6cOIWQm3S2g","name":"Auto Glass 2020","address":"955 W Chandler Blvd, Ste 9","latitude":33.3056634,"longitude":-111.8585121,"stars":4.0,"is_open":1}
